EEV_Mars_Trajectory/Access/Target-FlimnapCrater-To-Satellite-DST_Access.csv

Access,Start Time (UTCG),Stop Time (UTCG),Duration (sec)
1,7/7/40 3:00,7/7/40 3:20,1206.778
2,7/7/40 6:53,7/7/40 9:09,8201.032
3,7/7/40 14:44,7/7/40 16:32,6477.257
4,7/7/40 19:57,7/7/40 22:01,7442.954
5,7/7/40 23:08,7/8/40 0:34,5167.938
6,7/8/40 4:04,7/8/40 5:58,6883.106
7,7/8/40 7:01,7/8/40 8:23,4972.747
8,7/8/40 11:56,7/8/40 13:48,6701.811
9,7/8/40 14:48,7/8/40 16:10,4892.042
10,7/8/40 19:44,7/8/40 21:34,6607.797
11,7/8/40 22:34,7/8/40 23:54,4849.331
12,7/9/40 3:30,7/9/40 4:00,1763.486
