EEV_Mars_Trajectory/Access/Target-FlimnapCrater-To-Satellite-DST_Access.csv

Access,Start Time (UTCG),Stop Time (UTCG),Duration (sec)
1,1/1/40 0:00,1/1/40 2:49,10175.102
2,1/1/40 4:24,1/1/40 6:05,6060.101
3,1/1/40 9:35,1/1/40 11:29,6852.503
4,1/1/40 12:35,1/1/40 14:04,5326.773
5,1/1/40 17:36,1/1/40 19:24,6499.649
6,1/1/40 20:26,1/1/40 21:53,5183.687
7,1/2/40 1:27,1/2/40 3:13,6387.252
8,1/2/40 4:14,1/2/40 5:39,5125.124
9,1/2/40 9:14,1/2/40 10:59,6336.023
10,1/2/40 11:59,1/2/40 13:24,5096.559
11,1/2/40 16:59,1/2/40 18:44,6309.996
12,1/2/40 19:44,1/2/40 21:09,5082.622
13,1/3/40 0:44,1/3/40 2:29,6298.259
14,1/3/40 3:28,1/3/40 4:53,5077.327
15,1/3/40 8:28,1/3/40 10:12,6295.491
16,1/3/40 11:12,1/3/40 12:36,5079.335
17,1/3/40 16:11,1/3/40 17:56,6300.234
18,1/3/40 18:56,1/3/40 20:20,5087.477
19,1/3/40 23:55,1/4/40 1:40,6313.031
20,1/4/40 2:40,1/4/40 4:05,5102.596
21,1/4/40 7:39,1/4/40 9:24,6334.53
22,1/4/40 10:24,1/4/40 11:50,5127.41
23,1/4/40 15:23,1/4/40 17:09,6369.502
24,1/4/40 18:10,1/4/40 19:36,5167.241
25,1/4/40 23:08,1/5/40 0:55,6427.658
26,1/5/40 1:57,1/5/40 3:24,5236.46
27,1/5/40 6:54,1/5/40 8:43,6535.805
28,1/5/40 9:47,1/5/40 11:17,5380.456
29,1/5/40 14:44,1/5/40 16:38,6806.905
30,1/5/40 17:47,1/5/40 19:26,5889.952
31,1/5/40 22:49,1/6/40 1:46,10608.306
32,1/6/40 2:41,1/6/40 4:59,8256.71
33,1/6/40 6:47,1/6/40 8:30,6207.613
34,1/6/40 12:01,1/6/40 13:56,6903.268
35,1/6/40 15:02,1/6/40 16:31,5339.785
36,1/6/40 20:03,1/6/40 21:51,6513.689
37,1/6/40 22:54,1/7/40 0:20,5187.439
38,1/7/40 3:54,1/7/40 5:40,6393.767
39,1/7/40 6:41,1/7/40 8:06,5126.251
40,1/7/40 11:41,1/7/40 13:27,6339.26
41,1/7/40 14:27,1/7/40 15:52,5096.632
42,1/7/40 19:26,1/7/40 21:12,6311.323
43,1/7/40 22:11,1/7/40 23:36,5082.05
44,1/8/40 3:11,1/8/40 4:56,6298.246
45,1/8/40 5:55,1/8/40 7:20,5076.379
46,1/8/40 10:55,1/8/40 12:40,6294.301
47,1/8/40 13:39,1/8/40 15:04,5078.055
48,1/8/40 18:39,1/8/40 20:24,6298.014
49,1/8/40 21:23,1/8/40 22:48,5085.839
50,1/9/40 2:22,1/9/40 4:08,6309.672
51,1/9/40 5:07,1/9/40 6:32,5100.612
52,1/9/40 10:06,1/9/40 11:52,6329.905
53,1/9/40 12:52,1/9/40 14:17,5124.788
54,1/9/40 17:50,1/9/40 19:36,6363.233
55,1/9/40 20:37,1/9/40 22:03,5163.608
56,1/10/40 1:35,1/10/40 3:22,6418.649
57,1/10/40 4:24,1/10/40 5:51,5230.61
58,1/10/40 9:22,1/10/40 11:10,6521.349
59,1/10/40 12:14,1/10/40 13:43,5367.63
60,1/10/40 17:11,1/10/40 19:04,6772.722
61,1/10/40 20:13,1/10/40 21:50,5826.207
62,1/11/40 1:14,1/11/40 3:44,8997.173
63,1/11/40 9:09,1/11/40 10:56,6416.689
64,1/11/40 14:26,1/11/40 16:22,6963.02
65,1/11/40 17:28,1/11/40 18:57,5354.319
66,1/11/40 22:30,1/12/40 0:18,6529.185
67,1/12/40 1:21,1/12/40 2:47,5191.234
68,1/12/40 6:21,1/12/40 8:08,6400.837
69,1/12/40 9:08,1/12/40 10:34,5127.14
70,1/12/40 14:08,1/12/40 15:54,6342.802
71,1/12/40 16:54,1/12/40 18:19,5096.325
72,1/12/40 21:54,1/12/40 23:39,6312.839
73,1/13/40 0:39,1/13/40 2:03,5081.056
74,1/13/40 5:38,1/13/40 7:23,6298.351
75,1/13/40 8:23,1/13/40 9:47,5074.993
76,1/13/40 13:22,1/13/40 15:07,6293.179
77,1/13/40 16:07,1/13/40 17:31,5076.277
78,1/13/40 21:06,1/13/40 22:51,6295.856
79,1/13/40 23:51,1/14/40 1:15,5083.7
80,1/14/40 4:50,1/14/40 6:35,6306.337
81,1/14/40 7:35,1/14/40 9:00,5098.12
82,1/14/40 12:34,1/14/40 14:19,6325.291
83,1/14/40 15:19,1/14/40 16:44,5121.612
84,1/14/40 20:18,1/14/40 22:04,6356.961
85,1/14/40 23:04,1/15/40 0:30,5159.415
86,1/15/40 4:03,1/15/40 5:50,6409.662
87,1/15/40 6:51,1/15/40 8:18,5224.209
88,1/15/40 11:49,1/15/40 13:38,6507.052
89,1/15/40 14:41,1/15/40 16:10,5354.529
90,1/15/40 19:39,1/15/40 21:31,6739.952
91,1/15/40 22:39,1/16/40 0:15,5768.471
92,1/16/40 3:40,1/16/40 5:59,8362.944
93,1/16/40 11:28,1/16/40 13:20,6738.297
94,1/16/40 16:51,1/16/40 18:48,7034.057
95,1/16/40 19:55,1/16/40 21:24,5370.685
96,1/17/40 0:56,1/17/40 2:45,6546.302
97,1/17/40 3:48,1/17/40 5:14,5195.116
98,1/17/40 8:48,1/17/40 10:35,6408.527
99,1/17/40 11:36,1/17/40 13:01,5127.799
100,1/17/40 16:36,1/17/40 18:21,6346.654
101,1/17/40 19:21,1/17/40 20:46,5095.672
102,1/18/40 0:21,1/18/40 2:06,6314.561
103,1/18/40 3:06,1/18/40 4:31,5079.636
104,1/18/40 8:06,1/18/40 9:51,6298.572
105,1/18/40 10:50,1/18/40 12:15,5073.16
106,1/18/40 15:50,1/18/40 17:35,6292.158
107,1/18/40 18:34,1/18/40 19:59,5074.029
108,1/18/40 23:34,1/19/40 1:19,6293.754
109,1/19/40 2:18,1/19/40 3:43,5081.06
110,1/19/40 7:17,1/19/40 9:02,6303.021
111,1/19/40 10:02,1/19/40 11:27,5095.11
112,1/19/40 15:01,1/19/40 16:47,6320.722
113,1/19/40 17:46,1/19/40 19:12,5117.91
114,1/19/40 22:45,1/20/40 0:31,6350.706
115,1/20/40 1:32,1/20/40 2:58,5154.702
116,1/20/40 6:30,1/20/40 8:17,6400.736
117,1/20/40 9:18,1/20/40 10:45,5217.291
118,1/20/40 14:16,1/20/40 16:05,6492.948
119,1/20/40 17:08,1/20/40 18:37,5341.185
120,1/20/40 22:06,1/20/40 23:57,6708.641
121,1/21/40 1:05,1/21/40 2:40,5715.982
122,1/21/40 6:05,1/21/40 8:18,7973.488
123,1/21/40 13:43,1/21/40 15:45,7317.016
124,1/21/40 19:15,1/21/40 21:14,7119.607
125,1/21/40 22:21,1/21/40 23:51,5389.278
126,1/22/40 3:23,1/22/40 5:12,6565.215
127,1/22/40 6:15,1/22/40 7:41,5199.173
128,1/22/40 11:15,1/22/40 13:02,6416.863
129,1/22/40 14:03,1/22/40 15:28,5128.276
130,1/22/40 19:03,1/22/40 20:49,6350.842
131,1/22/40 21:49,1/22/40 23:14,5094.674
132,1/23/40 2:49,1/23/40 4:34,6316.518
133,1/23/40 5:33,1/23/40 6:58,5077.824
134,1/23/40 10:33,1/23/40 12:18,6298.922
135,1/23/40 13:18,1/23/40 14:42,5070.889
136,1/23/40 18:17,1/23/40 20:02,6291.238
137,1/23/40 21:01,1/23/40 22:26,5071.29
138,1/24/40 2:01,1/24/40 3:46,6291.738
139,1/24/40 4:45,1/24/40 6:10,5077.95
140,1/24/40 9:45,1/24/40 11:30,6299.761
141,1/24/40 12:29,1/24/40 13:54,5091.573
142,1/24/40 17:29,1/24/40 19:14,6316.207
143,1/24/40 20:14,1/24/40 21:39,5113.685
144,1/25/40 1:13,1/25/40 2:59,6344.5
145,1/25/40 3:59,1/25/40 5:25,5149.454
146,1/25/40 8:58,1/25/40 10:44,6391.889
147,1/25/40 11:45,1/25/40 13:12,5209.867
148,1/25/40 16:44,1/25/40 18:32,6479.103
149,1/25/40 19:35,1/25/40 21:03,5327.661
150,1/26/40 0:33,1/26/40 2:24,6678.798
151,1/26/40 3:31,1/26/40 5:06,5668.055
152,1/26/40 8:31,1/26/40 10:39,7700.953
153,1/26/40 12:33,1/26/40 14:53,8393.45
154,1/26/40 15:35,1/26/40 18:08,9214.253
155,1/26/40 21:39,1/26/40 23:39,7224.321
156,1/27/40 0:47,1/27/40 2:17,5410.568
157,1/27/40 5:49,1/27/40 7:39,6586.162
158,1/27/40 8:42,1/27/40 10:08,5203.446
159,1/27/40 13:42,1/27/40 15:29,6425.912
160,1/27/40 16:30,1/27/40 17:55,5128.573
161,1/27/40 21:30,1/27/40 23:16,6355.416
162,1/28/40 0:16,1/28/40 1:41,5093.352
163,1/28/40 5:16,1/28/40 7:01,6318.705
164,1/28/40 8:01,1/28/40 9:25,5075.617
165,1/28/40 13:01,1/28/40 14:46,6299.427
166,1/28/40 15:45,1/28/40 17:09,5068.2
167,1/28/40 20:45,1/28/40 22:30,6290.45
168,1/28/40 23:29,1/29/40 0:53,5068.09
169,1/29/40 4:29,1/29/40 6:14,6289.802
170,1/29/40 7:13,1/29/40 8:37,5074.347
171,1/29/40 12:12,1/29/40 13:57,6296.575
172,1/29/40 14:57,1/29/40 16:21,5087.539
173,1/29/40 19:56,1/29/40 21:41,6311.768
174,1/29/40 22:41,1/30/40 0:06,5108.941
175,1/30/40 3:40,1/30/40 5:26,6338.349
176,1/30/40 6:26,1/30/40 7:52,5143.709
177,1/30/40 11:25,1/30/40 13:11,6383.167
178,1/30/40 14:13,1/30/40 15:39,5201.962
179,1/30/40 19:11,1/30/40 20:59,6465.522
180,1/30/40 22:02,1/30/40 23:30,5313.965
