EEV_Mars_Trajectory/Access/Target-GulliverCrater-To-Satellite-DST_Access.csv

Access,Start Time (UTCG),Stop Time (UTCG),Duration (sec)
1,7/9/40 4:00,7/9/40 4:14,879.456
2,7/9/40 8:00,7/9/40 11:59,14333.896
3,7/9/40 15:44,7/9/40 19:42,14310.684
4,7/9/40 23:28,7/10/40 3:26,14273.094
5,7/10/40 7:12,7/10/40 11:09,14220.232
6,7/10/40 14:57,7/10/40 18:53,14148.76
7,7/10/40 22:43,7/11/40 2:37,14052.06
8,7/11/40 6:29,7/11/40 10:21,13916.594
9,7/11/40 14:18,7/11/40 18:07,13712.832
10,7/11/40 22:13,7/12/40 1:56,13360.127
