EEV_Mars_Trajectory/Access/Target-GulliverCrater-To-Satellite-DST_Access.csv

"Access","Start Time (UTCG)","Stop Time (UTCG)","Duration (sec)"
1,1 Jan 2040 06:34:12.594,1 Jan 2040 10:16:44.458,13351.864
2,1 Jan 2040 14:28:47.717,1 Jan 2040 18:17:54.982,13747.265
3,1 Jan 2040 22:16:36.531,2 Jan 2040 02:08:52.105,13935.574
4,2 Jan 2040 06:02:10.118,2 Jan 2040 09:56:14.423,14044.305
5,2 Jan 2040 13:46:40.864,2 Jan 2040 17:41:52.994,14112.130
6,2 Jan 2040 21:30:39.761,3 Jan 2040 01:26:34.413,14154.653
7,3 Jan 2040 05:14:24.325,3 Jan 2040 09:10:43.483,14179.158
8,3 Jan 2040 12:58:07.160,3 Jan 2040 16:54:35.929,14188.769
9,3 Jan 2040 20:41:59.565,4 Jan 2040 00:38:23.973,14184.409
10,4 Jan 2040 04:26:14.625,4 Jan 2040 08:22:19.437,14164.813
11,4 Jan 2040 12:11:10.682,4 Jan 2040 16:06:36.613,14125.930
12,4 Jan 2040 19:57:18.554,4 Jan 2040 23:51:37.788,14059.234
13,5 Jan 2040 03:45:41.601,5 Jan 2040 07:38:06.594,13944.993
14,5 Jan 2040 11:39:09.752,5 Jan 2040 15:28:01.201,13731.449
15,5 Jan 2040 19:51:28.486,5 Jan 2040 23:32:21.746,13253.260
16,6 Jan 2040 09:00:04.974,6 Jan 2040 12:42:36.363,13351.389
17,6 Jan 2040 16:55:35.281,6 Jan 2040 20:44:56.067,13760.786
18,7 Jan 2040 00:43:39.511,7 Jan 2040 04:36:11.549,13952.038
19,7 Jan 2040 08:29:20.553,7 Jan 2040 12:23:41.575,14061.022
20,7 Jan 2040 16:13:55.749,7 Jan 2040 20:09:23.929,14128.180
21,7 Jan 2040 23:57:57.576,8 Jan 2040 03:54:07.244,14169.668
22,8 Jan 2040 07:41:44.137,8 Jan 2040 11:38:17.104,14192.967
23,8 Jan 2040 15:25:28.252,8 Jan 2040 19:22:09.538,14201.286
24,8 Jan 2040 23:09:21.281,9 Jan 2040 03:05:56.860,14195.579
25,9 Jan 2040 06:53:36.212,9 Jan 2040 10:49:50.821,14174.608
26,9 Jan 2040 14:38:30.976,9 Jan 2040 18:34:05.419,14134.443
27,9 Jan 2040 22:24:35.496,10 Jan 2040 02:19:02.170,14066.674
28,10 Jan 2040 06:12:50.415,10 Jan 2040 10:05:22.560,13952.145
29,10 Jan 2040 14:05:55.111,10 Jan 2040 17:54:56.281,13741.169
30,10 Jan 2040 22:16:00.064,11 Jan 2040 01:57:11.173,13271.109
31,11 Jan 2040 11:25:45.009,11 Jan 2040 15:08:11.649,13346.641
32,11 Jan 2040 19:22:20.269,11 Jan 2040 23:11:52.012,13771.743
33,12 Jan 2040 03:10:41.435,12 Jan 2040 07:03:27.867,13966.432
34,12 Jan 2040 10:56:30.447,12 Jan 2040 14:51:06.305,14075.858
35,12 Jan 2040 18:41:10.344,12 Jan 2040 22:36:52.771,14142.428
36,13 Jan 2040 02:25:15.198,13 Jan 2040 06:21:38.174,14182.976
37,13 Jan 2040 10:09:03.799,13 Jan 2040 14:05:48.923,14205.124
38,13 Jan 2040 17:52:49.208,13 Jan 2040 21:49:41.393,14212.185
39,14 Jan 2040 01:36:42.822,14 Jan 2040 05:33:28.042,14205.219
40,14 Jan 2040 09:20:57.546,14 Jan 2040 13:17:20.510,14182.964
41,14 Jan 2040 17:05:50.926,14 Jan 2040 21:01:32.525,14141.599
42,15 Jan 2040 00:51:51.946,15 Jan 2040 04:46:24.876,14072.930
43,15 Jan 2040 08:39:58.588,15 Jan 2040 12:32:36.932,13958.343
44,15 Jan 2040 16:32:40.120,15 Jan 2040 20:21:50.477,13750.357
45,16 Jan 2040 00:40:44.080,16 Jan 2040 04:22:16.011,13291.931
46,16 Jan 2040 13:51:10.036,16 Jan 2040 17:33:27.852,13337.816
47,16 Jan 2040 21:49:02.492,17 Jan 2040 01:38:42.731,13780.239
48,17 Jan 2040 05:37:42.287,17 Jan 2040 09:30:41.125,13978.838
49,17 Jan 2040 13:23:39.855,17 Jan 2040 17:18:28.710,14088.855
50,17 Jan 2040 21:08:24.686,18 Jan 2040 01:04:19.630,14154.944
51,18 Jan 2040 04:52:32.707,18 Jan 2040 08:49:07.278,14194.571
52,18 Jan 2040 12:36:23.399,18 Jan 2040 16:33:19.017,14215.618
53,18 Jan 2040 20:20:10.100,19 Jan 2040 00:17:11.587,14221.487
54,19 Jan 2040 04:04:04.293,19 Jan 2040 08:00:57.579,14213.285
55,19 Jan 2040 11:48:18.756,19 Jan 2040 15:44:48.571,14189.815
56,19 Jan 2040 19:33:10.660,19 Jan 2040 23:28:58.026,14147.366
57,20 Jan 2040 03:19:08.085,20 Jan 2040 07:13:45.989,14077.904
58,20 Jan 2040 11:07:06.383,20 Jan 2040 14:59:49.843,13963.460
59,20 Jan 2040 18:59:25.238,20 Jan 2040 22:48:43.959,13758.721
60,21 Jan 2040 03:05:39.788,21 Jan 2040 06:47:33.912,13314.124
61,21 Jan 2040 16:16:16.334,21 Jan 2040 19:58:21.654,13325.321
62,22 Jan 2040 00:15:41.740,22 Jan 2040 04:05:28.120,13786.380
63,22 Jan 2040 08:04:42.068,22 Jan 2040 11:57:51.418,13989.350
64,22 Jan 2040 15:50:48.793,22 Jan 2040 19:45:48.901,14100.109
65,22 Jan 2040 23:35:38.845,23 Jan 2040 03:31:44.586,14165.741
66,23 Jan 2040 07:19:50.150,23 Jan 2040 11:16:34.663,14204.513
67,23 Jan 2040 15:03:43.009,23 Jan 2040 19:00:47.468,14224.459
68,23 Jan 2040 22:47:31.027,24 Jan 2040 02:44:40.189,14229.163
69,24 Jan 2040 06:31:25.778,24 Jan 2040 10:28:25.564,14219.786
70,24 Jan 2040 14:15:39.952,24 Jan 2040 18:12:15.086,14195.134
71,24 Jan 2040 22:00:30.325,25 Jan 2040 01:56:21.993,14151.668
72,25 Jan 2040 05:46:24.096,25 Jan 2040 09:41:05.612,14081.516
73,25 Jan 2040 13:34:14.054,25 Jan 2040 17:27:01.408,13967.354
74,25 Jan 2040 21:26:10.831,26 Jan 2040 01:15:36.894,13766.063
75,26 Jan 2040 05:30:46.418,26 Jan 2040 09:13:02.893,13336.475
76,26 Jan 2040 18:40:58.614,26 Jan 2040 22:22:48.511,13309.897
77,27 Jan 2040 02:42:17.746,27 Jan 2040 06:32:08.020,13790.273
78,27 Jan 2040 10:31:40.743,27 Jan 2040 14:24:58.800,13998.057
79,27 Jan 2040 18:17:57.307,27 Jan 2040 22:13:06.961,14109.654
80,28 Jan 2040 02:02:52.849,28 Jan 2040 05:59:07.751,14174.902
81,28 Jan 2040 09:47:07.603,28 Jan 2040 13:44:00.405,14212.802
82,28 Jan 2040 17:31:02.689,28 Jan 2040 21:28:14.374,14231.685
83,29 Jan 2040 01:14:52.049,29 Jan 2040 05:12:07.286,14235.237
84,29 Jan 2040 08:58:47.379,29 Jan 2040 12:55:52.061,14224.683
85,29 Jan 2040 16:43:01.232,29 Jan 2040 20:39:40.142,14198.910
86,30 Jan 2040 00:27:50.050,30 Jan 2040 04:23:44.516,14154.467
87,30 Jan 2040 08:13:40.130,30 Jan 2040 12:08:23.827,14083.697
88,30 Jan 2040 16:01:21.813,30 Jan 2040 19:54:11.734,13969.921
89,30 Jan 2040 23:52:57.237,31 Jan 2040 00:00:00.000,422.763

