EEV_Mars_Trajectory/Access/Target-ClustrillCrater-To-Satellite-DST_Access.csv

"Access","Start Time (UTCG)","Stop Time (UTCG)","Duration (sec)"
1,1 Jan 2040 04:24:04.734,1 Jan 2040 08:06:04.334,13319.600
2,1 Jan 2040 12:35:14.263,1 Jan 2040 16:07:09.249,12714.986
3,1 Jan 2040 20:26:51.813,1 Jan 2040 23:57:27.593,12635.780
4,2 Jan 2040 04:14:10.178,2 Jan 2040 07:44:21.639,12611.461
5,2 Jan 2040 11:59:39.358,2 Jan 2040 15:29:41.260,12601.902
6,2 Jan 2040 19:44:13.322,2 Jan 2040 23:14:10.840,12597.518
7,3 Jan 2040 03:28:18.849,3 Jan 2040 06:58:13.814,12594.965
8,3 Jan 2040 11:12:11.329,3 Jan 2040 14:42:05.442,12594.113
9,3 Jan 2040 18:56:04.044,3 Jan 2040 22:25:57.978,12593.934
10,4 Jan 2040 02:40:09.262,4 Jan 2040 06:10:04.093,12594.832
11,4 Jan 2040 10:24:41.976,4 Jan 2040 13:54:40.123,12598.146
12,4 Jan 2040 18:10:06.038,4 Jan 2040 21:40:12.420,12606.381
13,5 Jan 2040 01:57:05.260,5 Jan 2040 05:27:34.124,12628.864
14,5 Jan 2040 09:47:26.515,5 Jan 2040 13:19:09.855,12703.340
15,5 Jan 2040 17:47:50.316,5 Jan 2040 21:27:52.252,13201.936
16,6 Jan 2040 06:47:13.539,6 Jan 2040 10:31:32.557,13459.017
17,6 Jan 2040 15:01:56.007,6 Jan 2040 18:34:00.732,12724.725
18,6 Jan 2040 22:53:59.497,7 Jan 2040 02:24:38.850,12639.353
19,7 Jan 2040 06:41:27.340,7 Jan 2040 10:11:41.351,12614.011
20,7 Jan 2040 14:27:01.060,7 Jan 2040 17:57:05.451,12604.391
21,7 Jan 2040 22:11:37.530,8 Jan 2040 01:41:37.601,12600.071
22,8 Jan 2040 05:55:44.320,8 Jan 2040 09:25:42.034,12597.714
23,8 Jan 2040 13:39:37.288,8 Jan 2040 17:09:34.335,12597.047
24,8 Jan 2040 21:23:29.818,9 Jan 2040 00:53:26.829,12597.010
25,9 Jan 2040 05:07:33.986,9 Jan 2040 08:37:32.115,12598.129
26,9 Jan 2040 12:52:04.753,9 Jan 2040 16:22:06.207,12601.454
27,9 Jan 2040 20:37:25.053,10 Jan 2040 00:07:34.605,12609.552
28,10 Jan 2040 04:24:16.925,10 Jan 2040 07:54:48.033,12631.108
29,10 Jan 2040 12:14:21.159,10 Jan 2040 15:46:01.421,12700.263
30,10 Jan 2040 20:13:40.244,10 Jan 2040 23:52:27.050,13126.806
31,11 Jan 2040 09:09:00.288,11 Jan 2040 12:56:40.223,13659.936
32,11 Jan 2040 17:28:32.201,11 Jan 2040 21:00:47.401,12735.201
33,12 Jan 2040 01:21:04.947,12 Jan 2040 04:51:47.457,12642.510
34,12 Jan 2040 09:08:43.132,12 Jan 2040 12:38:59.110,12615.978
35,12 Jan 2040 16:54:21.756,12 Jan 2040 20:24:27.999,12606.243
36,13 Jan 2040 00:39:00.907,13 Jan 2040 04:09:02.892,12601.984
37,13 Jan 2040 08:23:09.020,13 Jan 2040 11:53:08.873,12599.853
38,13 Jan 2040 16:07:02.537,13 Jan 2040 19:37:01.869,12599.332
39,13 Jan 2040 23:50:54.872,14 Jan 2040 03:20:54.336,12599.464
40,14 Jan 2040 07:34:57.970,14 Jan 2040 11:04:58.785,12600.814
41,14 Jan 2040 15:19:26.741,14 Jan 2040 18:49:30.882,12604.141
42,14 Jan 2040 23:04:43.201,15 Jan 2040 02:34:55.346,12612.144
43,15 Jan 2040 06:51:27.688,15 Jan 2040 10:22:00.491,12632.803
44,15 Jan 2040 14:41:15.068,15 Jan 2040 18:12:52.070,12697.002
45,15 Jan 2040 22:39:33.351,16 Jan 2040 02:17:17.180,13063.829
46,16 Jan 2040 11:28:28.585,16 Jan 2040 15:21:22.958,13974.373
47,16 Jan 2040 19:55:02.413,16 Jan 2040 23:27:29.115,12746.701
48,17 Jan 2040 03:48:08.181,17 Jan 2040 07:18:53.442,12645.262
49,17 Jan 2040 11:35:57.616,17 Jan 2040 15:06:15.000,12617.384
50,17 Jan 2040 19:21:41.526,17 Jan 2040 22:51:49.004,12607.478
51,18 Jan 2040 03:06:23.533,18 Jan 2040 06:36:26.784,12603.251
52,18 Jan 2040 10:50:33.049,18 Jan 2040 14:20:34.404,12601.355
53,18 Jan 2040 18:34:27.161,18 Jan 2040 22:04:28.144,12600.983
54,19 Jan 2040 02:18:19.299,19 Jan 2040 05:48:20.588,12601.289
55,19 Jan 2040 10:02:21.320,19 Jan 2040 13:32:24.177,12602.858
56,19 Jan 2040 17:46:48.066,19 Jan 2040 21:16:54.269,12606.204
57,20 Jan 2040 01:32:00.626,20 Jan 2040 05:02:14.759,12614.133
58,20 Jan 2040 09:18:37.733,20 Jan 2040 12:49:11.662,12633.928
59,20 Jan 2040 17:08:08.539,20 Jan 2040 20:39:42.111,12693.572
60,21 Jan 2040 01:05:29.930,21 Jan 2040 04:42:20.609,13010.680
61,21 Jan 2040 13:43:05.250,21 Jan 2040 17:45:34.472,14549.222
62,21 Jan 2040 22:21:26.104,22 Jan 2040 01:54:05.645,12759.541
63,22 Jan 2040 06:15:09.199,22 Jan 2040 09:45:56.866,12647.668
64,22 Jan 2040 14:03:10.857,22 Jan 2040 17:33:29.099,12618.242
65,22 Jan 2040 21:49:00.453,23 Jan 2040 01:19:08.529,12608.076
66,23 Jan 2040 05:33:45.490,23 Jan 2040 09:03:49.377,12603.887
67,23 Jan 2040 13:17:56.488,23 Jan 2040 16:47:58.712,12602.224
68,23 Jan 2040 21:01:51.256,24 Jan 2040 00:31:53.221,12601.965
69,24 Jan 2040 04:45:43.190,24 Jan 2040 08:15:45.670,12602.480
70,24 Jan 2040 12:29:44.136,24 Jan 2040 15:59:48.394,12604.258
71,24 Jan 2040 20:14:08.827,24 Jan 2040 23:44:16.453,12607.626
72,25 Jan 2040 03:59:17.468,25 Jan 2040 07:29:32.973,12615.506
73,25 Jan 2040 11:45:47.246,25 Jan 2040 15:16:21.730,12634.484
74,25 Jan 2040 19:35:01.835,25 Jan 2040 23:06:31.773,12689.938
75,26 Jan 2040 03:31:30.161,26 Jan 2040 07:07:35.644,12965.483
76,26 Jan 2040 12:32:55.759,26 Jan 2040 14:53:23.563,8427.804
77,26 Jan 2040 15:34:42.549,26 Jan 2040 20:09:05.399,16462.850
78,27 Jan 2040 00:47:42.578,27 Jan 2040 04:20:36.746,12774.168
79,27 Jan 2040 08:42:07.982,27 Jan 2040 12:12:57.745,12649.763
80,27 Jan 2040 16:30:22.922,27 Jan 2040 20:00:41.469,12618.547
81,28 Jan 2040 00:16:18.616,28 Jan 2040 03:46:26.674,12608.058
82,28 Jan 2040 08:01:06.854,28 Jan 2040 11:31:10.733,12603.879
83,28 Jan 2040 15:45:19.424,28 Jan 2040 19:15:21.870,12602.446
84,28 Jan 2040 23:29:14.902,29 Jan 2040 02:59:17.195,12602.293
85,29 Jan 2040 07:13:06.632,29 Jan 2040 10:43:09.649,12603.017
86,29 Jan 2040 14:57:06.522,29 Jan 2040 18:27:11.515,12604.994
87,29 Jan 2040 22:41:29.139,30 Jan 2040 02:11:37.544,12608.404
88,30 Jan 2040 06:26:33.855,30 Jan 2040 09:56:50.104,12616.249
89,30 Jan 2040 14:12:56.392,30 Jan 2040 17:43:30.831,12634.439
90,30 Jan 2040 22:01:55.189,31 Jan 2040 00:00:00.000,7084.811

