EEV_Mars_Trajectory/OldAccess/Target-GulliverCrater-To-Planet-Sun_Access.csv

"Access","Start Time (UTCG)","Stop Time (UTCG)","Duration (sec)"
1,1 Jan 2040 00:00:00.000,1 Jan 2040 05:58:24.035,21504.035
2,1 Jan 2040 07:30:01.163,1 Jan 2040 13:37:50.785,22069.622
3,1 Jan 2040 15:08:34.239,1 Jan 2040 21:17:16.933,22122.694
4,1 Jan 2040 22:47:06.482,2 Jan 2040 04:56:43.567,22177.085
5,2 Jan 2040 06:25:37.860,2 Jan 2040 12:36:09.734,22231.873
6,2 Jan 2040 14:04:08.303,2 Jan 2040 20:15:36.018,22287.715
7,2 Jan 2040 21:42:37.759,3 Jan 2040 03:55:02.606,22344.847
8,3 Jan 2040 05:21:06.154,3 Jan 2040 11:34:28.818,22402.664
9,3 Jan 2040 12:59:33.414,3 Jan 2040 19:13:55.234,22461.820
10,3 Jan 2040 20:37:59.458,4 Jan 2040 02:53:21.677,22522.219
11,4 Jan 2040 04:16:24.179,4 Jan 2040 10:32:48.050,22583.871
12,4 Jan 2040 11:54:47.482,4 Jan 2040 18:12:14.522,22647.040
13,4 Jan 2040 19:33:09.228,5 Jan 2040 01:51:40.833,22711.606
14,5 Jan 2040 03:11:29.291,5 Jan 2040 09:31:07.427,22778.136
15,5 Jan 2040 10:49:47.493,5 Jan 2040 17:10:33.864,22846.371
16,5 Jan 2040 18:28:03.642,6 Jan 2040 00:50:00.148,22916.506
17,6 Jan 2040 02:06:17.521,6 Jan 2040 08:29:26.914,22989.393
18,6 Jan 2040 09:44:28.856,6 Jan 2040 16:08:53.279,23064.423
19,6 Jan 2040 17:22:37.307,6 Jan 2040 23:48:19.660,23142.352
20,7 Jan 2040 01:00:42.489,7 Jan 2040 07:27:46.465,23223.977
21,7 Jan 2040 08:38:43.883,7 Jan 2040 15:07:12.812,23308.929
22,7 Jan 2040 16:16:40.840,7 Jan 2040 22:46:39.341,23398.501
23,7 Jan 2040 23:54:32.520,8 Jan 2040 06:26:06.041,23493.521
24,8 Jan 2040 07:32:17.750,8 Jan 2040 14:05:32.489,23594.739
25,8 Jan 2040 15:09:54.872,8 Jan 2040 21:44:59.122,23704.250
26,8 Jan 2040 22:47:21.391,9 Jan 2040 05:24:25.669,23824.279
27,9 Jan 2040 06:24:33.183,9 Jan 2040 13:03:52.322,23959.139
28,9 Jan 2040 14:01:22.494,9 Jan 2040 20:43:18.962,24116.468
29,9 Jan 2040 21:37:30.870,10 Jan 2040 04:22:45.418,24314.548
30,10 Jan 2040 05:12:26.976,10 Jan 2040 12:02:12.285,24585.308
31,10 Jan 2040 12:51:49.719,10 Jan 2040 19:41:38.862,24589.143
32,10 Jan 2040 20:31:11.997,11 Jan 2040 03:21:05.356,24593.358
33,11 Jan 2040 04:10:34.363,11 Jan 2040 11:00:32.340,24597.976
34,11 Jan 2040 11:49:57.006,11 Jan 2040 18:39:58.859,24601.853
35,11 Jan 2040 19:29:19.237,12 Jan 2040 02:19:25.488,24606.251
36,12 Jan 2040 03:08:41.646,12 Jan 2040 09:58:52.439,24610.793
37,12 Jan 2040 10:48:04.091,12 Jan 2040 17:38:18.994,24614.903
38,12 Jan 2040 18:27:26.392,13 Jan 2040 01:17:45.764,24619.373
39,13 Jan 2040 02:06:48.784,13 Jan 2040 08:57:12.568,24623.784
40,13 Jan 2040 09:46:11.034,13 Jan 2040 16:36:39.286,24628.252
41,13 Jan 2040 17:25:33.469,14 Jan 2040 00:16:06.112,24632.643
42,14 Jan 2040 01:04:55.762,14 Jan 2040 07:55:32.783,24637.021
43,14 Jan 2040 08:44:17.904,14 Jan 2040 15:34:59.727,24641.823
44,14 Jan 2040 16:23:40.437,14 Jan 2040 23:14:26.522,24646.085
45,15 Jan 2040 00:03:02.585,15 Jan 2040 06:53:53.158,24650.573
46,15 Jan 2040 07:42:24.722,15 Jan 2040 14:33:20.278,24655.556
47,15 Jan 2040 15:21:47.234,15 Jan 2040 22:12:47.001,24659.767
48,15 Jan 2040 23:01:09.277,16 Jan 2040 05:52:13.737,24664.460
49,16 Jan 2040 06:40:31.462,16 Jan 2040 13:31:40.901,24669.440
50,16 Jan 2040 14:19:53.827,16 Jan 2040 21:11:07.607,24673.780
51,16 Jan 2040 21:59:15.871,17 Jan 2040 04:50:34.489,24678.618
52,17 Jan 2040 05:38:38.081,17 Jan 2040 12:30:01.562,24683.481
53,17 Jan 2040 13:18:00.235,17 Jan 2040 20:09:28.365,24688.130
54,17 Jan 2040 20:57:22.391,18 Jan 2040 03:48:55.357,24692.966
55,18 Jan 2040 04:36:44.550,18 Jan 2040 11:28:22.275,24697.726
56,18 Jan 2040 12:16:06.539,18 Jan 2040 19:07:49.283,24702.744
57,18 Jan 2040 19:55:28.827,19 Jan 2040 02:47:16.290,24707.462
58,19 Jan 2040 03:34:50.862,19 Jan 2040 10:26:43.113,24712.251
59,19 Jan 2040 11:14:12.791,19 Jan 2040 18:06:10.339,24717.548
60,19 Jan 2040 18:53:35.133,20 Jan 2040 01:45:37.283,24722.150
61,20 Jan 2040 02:32:57.030,20 Jan 2040 09:25:04.139,24727.109
62,20 Jan 2040 10:12:18.987,20 Jan 2040 17:04:31.488,24732.502
63,20 Jan 2040 17:51:41.250,21 Jan 2040 00:43:58.375,24737.125
64,21 Jan 2040 01:31:03.082,21 Jan 2040 08:23:25.367,24742.285
65,21 Jan 2040 09:10:25.086,21 Jan 2040 16:02:52.694,24747.608
66,21 Jan 2040 16:49:47.163,21 Jan 2040 23:42:19.613,24752.449
67,22 Jan 2040 00:29:09.051,22 Jan 2040 07:21:46.750,24757.699
68,22 Jan 2040 08:08:31.053,22 Jan 2040 15:01:13.940,24762.887
69,22 Jan 2040 15:47:52.930,22 Jan 2040 22:40:41.017,24768.087
70,22 Jan 2040 23:27:14.950,23 Jan 2040 06:20:08.222,24773.271
71,23 Jan 2040 07:06:36.867,23 Jan 2040 13:59:35.271,24778.404
72,23 Jan 2040 14:45:58.624,23 Jan 2040 21:39:02.578,24783.954
73,23 Jan 2040 22:25:20.752,24 Jan 2040 05:18:29.750,24788.997
74,24 Jan 2040 06:04:42.533,24 Jan 2040 12:57:56.762,24794.230
75,24 Jan 2040 13:44:04.269,24 Jan 2040 20:37:24.257,24799.989
76,24 Jan 2040 21:23:26.399,25 Jan 2040 04:16:51.356,24804.957
77,25 Jan 2040 05:02:48.062,25 Jan 2040 11:56:18.462,24810.400
78,25 Jan 2040 12:42:09.845,25 Jan 2040 19:35:46.013,24816.168
79,25 Jan 2040 20:21:31.843,26 Jan 2040 03:15:13.092,24821.249
80,26 Jan 2040 04:00:53.492,26 Jan 2040 10:54:40.353,24826.861
81,26 Jan 2040 11:40:15.311,26 Jan 2040 18:34:07.816,24832.505
82,26 Jan 2040 19:19:37.102,27 Jan 2040 02:13:34.994,24837.892
83,27 Jan 2040 02:58:58.849,27 Jan 2040 09:53:02.372,24843.524
84,27 Jan 2040 10:38:20.632,27 Jan 2040 17:32:29.679,24849.047
85,27 Jan 2040 18:17:42.251,28 Jan 2040 01:11:57.065,24854.814
86,28 Jan 2040 01:57:04.132,28 Jan 2040 08:51:24.458,24860.326
87,28 Jan 2040 09:36:25.802,28 Jan 2040 16:30:51.670,24865.868
88,28 Jan 2040 17:15:47.346,29 Jan 2040 00:10:19.279,24871.933
89,29 Jan 2040 00:55:09.299,29 Jan 2040 07:49:46.613,24877.314
90,29 Jan 2040 08:34:30.829,29 Jan 2040 15:29:13.853,24883.024
91,29 Jan 2040 16:13:52.389,29 Jan 2040 23:08:41.597,24889.208
92,29 Jan 2040 23:53:14.284,30 Jan 2040 06:48:08.874,24894.590
93,30 Jan 2040 07:32:35.735,30 Jan 2040 14:27:36.249,24900.514
94,30 Jan 2040 15:11:57.346,30 Jan 2040 22:07:03.978,24906.632
95,30 Jan 2040 22:51:19.066,31 Jan 2040 00:00:00.000,4120.934

