EEV_Mars_Trajectory/OldAccess/Target-StickneyCrater-To-Planet-Sun_Access.csv

"Access","Start Time (UTCG)","Stop Time (UTCG)","Duration (sec)"
1,1 Jan 2040 00:00:00.000,1 Jan 2040 01:44:51.788,6291.788
2,1 Jan 2040 05:31:32.588,1 Jan 2040 05:58:16.443,1603.855
3,1 Jan 2040 06:49:52.285,1 Jan 2040 09:24:16.466,9264.182
4,1 Jan 2040 13:10:57.106,1 Jan 2040 13:37:42.652,1605.546
5,1 Jan 2040 14:29:14.991,1 Jan 2040 17:03:41.139,9266.148
6,1 Jan 2040 20:50:21.617,1 Jan 2040 21:17:08.783,1607.166
7,1 Jan 2040 22:08:37.807,2 Jan 2040 00:43:05.809,9268.002
8,2 Jan 2040 04:29:46.129,2 Jan 2040 04:56:35.397,1609.268
9,2 Jan 2040 05:48:00.870,2 Jan 2040 08:22:30.478,9269.608
10,2 Jan 2040 12:09:10.645,2 Jan 2040 12:36:01.550,1610.906
11,2 Jan 2040 13:27:23.542,2 Jan 2040 16:01:55.141,9271.599
12,2 Jan 2040 19:48:35.149,2 Jan 2040 20:15:27.815,1612.666
13,2 Jan 2040 21:06:46.394,2 Jan 2040 23:41:19.812,9273.417
14,3 Jan 2040 03:27:59.662,3 Jan 2040 03:54:54.386,1614.724
15,3 Jan 2040 04:46:09.250,3 Jan 2040 07:20:44.471,9275.221
16,3 Jan 2040 11:07:24.164,3 Jan 2040 11:34:20.582,1616.418
17,3 Jan 2040 12:25:32.007,3 Jan 2040 15:00:09.138,9277.131
18,3 Jan 2040 18:46:48.670,3 Jan 2040 19:13:46.981,1618.311
19,3 Jan 2040 20:04:54.828,3 Jan 2040 22:39:33.801,9278.973
20,4 Jan 2040 02:26:13.174,4 Jan 2040 02:53:13.407,1620.233
21,4 Jan 2040 03:44:17.493,4 Jan 2040 06:18:58.461,9280.968
22,4 Jan 2040 10:05:37.677,4 Jan 2040 10:32:39.761,1622.084
23,4 Jan 2040 11:23:40.379,4 Jan 2040 13:58:23.120,9282.741
24,4 Jan 2040 17:45:02.184,4 Jan 2040 18:12:06.214,1624.030
25,4 Jan 2040 19:03:03.087,4 Jan 2040 21:37:47.774,9284.687
26,5 Jan 2040 01:24:26.680,5 Jan 2040 01:51:32.502,1625.822
27,5 Jan 2040 02:42:25.654,5 Jan 2040 05:17:12.433,9286.779
28,5 Jan 2040 09:03:51.184,5 Jan 2040 09:30:59.078,1627.894
29,5 Jan 2040 10:21:48.628,5 Jan 2040 12:56:37.083,9288.455
30,5 Jan 2040 16:43:15.678,5 Jan 2040 17:10:25.501,1629.823
31,5 Jan 2040 18:01:11.185,5 Jan 2040 20:36:01.738,9290.552
32,6 Jan 2040 00:22:40.178,6 Jan 2040 00:49:51.761,1631.583
33,6 Jan 2040 01:40:33.760,6 Jan 2040 04:15:26.394,9292.634
34,6 Jan 2040 08:02:04.671,6 Jan 2040 08:29:18.511,1633.840
35,6 Jan 2040 09:19:56.691,6 Jan 2040 11:54:51.045,9294.354
36,6 Jan 2040 15:41:29.166,6 Jan 2040 16:08:44.860,1635.694
37,6 Jan 2040 16:59:19.156,6 Jan 2040 19:34:15.695,9296.538
38,6 Jan 2040 23:20:53.660,6 Jan 2040 23:48:11.222,1637.562
39,7 Jan 2040 00:38:41.777,7 Jan 2040 03:13:40.339,9298.562
40,7 Jan 2040 07:00:18.154,7 Jan 2040 07:27:38.009,1639.855
41,7 Jan 2040 08:18:04.539,7 Jan 2040 10:53:04.991,9300.452
42,7 Jan 2040 14:39:42.651,7 Jan 2040 15:07:04.333,1641.682
43,7 Jan 2040 15:57:27.021,7 Jan 2040 18:32:29.632,9302.611
44,7 Jan 2040 22:19:07.137,7 Jan 2040 22:46:30.843,1643.706
45,7 Jan 2040 23:36:49.662,8 Jan 2040 02:11:54.282,9304.621
46,8 Jan 2040 05:58:31.631,8 Jan 2040 06:25:57.528,1645.898
47,8 Jan 2040 07:16:12.209,8 Jan 2040 09:51:18.927,9306.717
48,8 Jan 2040 13:37:56.117,8 Jan 2040 14:05:23.954,1647.838
49,8 Jan 2040 14:55:34.811,8 Jan 2040 17:30:43.570,9308.758
50,8 Jan 2040 21:17:20.605,8 Jan 2040 21:44:50.567,1649.962
51,8 Jan 2040 22:34:57.379,9 Jan 2040 01:10:08.212,9310.832
52,9 Jan 2040 04:56:45.093,9 Jan 2040 05:24:17.094,1652.002
53,9 Jan 2040 06:14:19.778,9 Jan 2040 08:49:32.848,9313.069
54,9 Jan 2040 12:36:09.580,9 Jan 2040 13:03:43.730,1654.150
55,9 Jan 2040 13:53:42.505,9 Jan 2040 16:28:57.493,9314.988
56,9 Jan 2040 20:15:34.070,9 Jan 2040 20:43:10.353,1656.282
57,9 Jan 2040 21:33:04.937,10 Jan 2040 00:08:22.127,9317.189
58,10 Jan 2040 03:54:58.551,10 Jan 2040 04:22:36.789,1658.238
59,10 Jan 2040 05:12:27.290,10 Jan 2040 07:47:46.770,9319.480
60,10 Jan 2040 11:34:23.038,10 Jan 2040 12:02:03.636,1660.598
61,10 Jan 2040 12:51:50.053,10 Jan 2040 15:27:11.407,9321.354
62,10 Jan 2040 19:13:47.519,10 Jan 2040 19:41:30.195,1662.676
63,10 Jan 2040 20:31:12.351,10 Jan 2040 23:06:36.043,9323.692
64,11 Jan 2040 02:53:12.002,11 Jan 2040 03:20:56.669,1664.667
65,11 Jan 2040 04:10:34.736,11 Jan 2040 06:46:00.678,9325.942
66,11 Jan 2040 10:32:36.485,11 Jan 2040 11:00:23.631,1667.147
67,11 Jan 2040 11:49:57.399,11 Jan 2040 14:25:25.312,9327.912
68,11 Jan 2040 18:12:00.968,11 Jan 2040 18:39:50.130,1669.162
69,11 Jan 2040 19:29:19.650,11 Jan 2040 22:04:49.946,9330.296
70,12 Jan 2040 01:51:25.452,12 Jan 2040 02:19:16.739,1671.287
71,12 Jan 2040 03:08:42.079,12 Jan 2040 05:44:14.575,9332.495
72,12 Jan 2040 09:30:49.928,12 Jan 2040 09:58:43.669,1673.741
73,12 Jan 2040 10:48:04.547,12 Jan 2040 13:23:39.211,9334.665
74,12 Jan 2040 17:10:14.411,12 Jan 2040 17:38:10.205,1675.794
75,12 Jan 2040 18:27:26.865,12 Jan 2040 21:03:03.843,9336.977
76,13 Jan 2040 00:49:38.887,13 Jan 2040 01:17:36.952,1678.065
77,13 Jan 2040 02:06:49.281,13 Jan 2040 04:42:28.473,9339.193
78,13 Jan 2040 08:29:03.366,13 Jan 2040 08:57:03.743,1680.377
79,13 Jan 2040 09:46:11.546,13 Jan 2040 12:21:53.103,9341.557
80,13 Jan 2040 16:08:27.844,13 Jan 2040 16:36:30.435,1682.591
81,13 Jan 2040 17:25:34.002,13 Jan 2040 20:01:17.730,9343.727
82,13 Jan 2040 23:47:52.323,14 Jan 2040 00:15:57.245,1684.922
83,14 Jan 2040 01:04:56.315,14 Jan 2040 03:40:42.361,9346.045
84,14 Jan 2040 07:27:16.803,14 Jan 2040 07:55:23.894,1687.091
85,14 Jan 2040 08:44:18.477,14 Jan 2040 11:20:06.984,9348.507
86,14 Jan 2040 15:06:41.275,14 Jan 2040 15:34:50.813,1689.537
87,14 Jan 2040 16:23:41.036,14 Jan 2040 18:59:31.616,9350.580
88,14 Jan 2040 22:46:05.757,14 Jan 2040 23:14:17.587,1691.831
89,15 Jan 2040 00:03:03.204,15 Jan 2040 02:38:56.237,9353.034
90,15 Jan 2040 06:25:30.228,15 Jan 2040 06:53:44.205,1693.977
91,15 Jan 2040 07:42:25.358,15 Jan 2040 10:18:20.868,9355.510
92,15 Jan 2040 14:04:54.705,15 Jan 2040 14:33:11.305,1696.600
93,15 Jan 2040 15:21:47.891,15 Jan 2040 17:57:45.494,9357.602
94,15 Jan 2040 21:44:19.179,15 Jan 2040 22:12:38.012,1698.833
95,15 Jan 2040 23:01:09.955,16 Jan 2040 01:37:10.119,9360.164
96,16 Jan 2040 05:23:43.653,16 Jan 2040 05:52:04.723,1701.069
97,16 Jan 2040 06:40:32.160,16 Jan 2040 09:16:34.743,9362.583
98,16 Jan 2040 13:03:08.133,16 Jan 2040 13:31:31.866,1703.733
99,16 Jan 2040 14:19:54.544,16 Jan 2040 16:55:59.362,9364.819
100,16 Jan 2040 20:42:32.602,16 Jan 2040 21:10:58.549,1705.947
101,16 Jan 2040 21:59:16.611,17 Jan 2040 00:35:23.990,9367.379
102,17 Jan 2040 04:21:57.081,17 Jan 2040 04:50:25.410,1708.329
103,17 Jan 2040 05:38:38.843,17 Jan 2040 08:14:48.608,9369.765
104,17 Jan 2040 12:01:21.550,17 Jan 2040 12:29:52.467,1710.917
105,17 Jan 2040 13:18:01.020,17 Jan 2040 15:54:13.235,9372.215
106,17 Jan 2040 19:40:46.028,17 Jan 2040 20:09:19.247,1713.219
107,17 Jan 2040 20:57:23.195,17 Jan 2040 23:33:37.858,9374.662
108,18 Jan 2040 03:20:10.497,18 Jan 2040 03:48:46.215,1715.718
109,18 Jan 2040 04:36:45.376,18 Jan 2040 07:13:02.479,9377.103
110,18 Jan 2040 10:59:34.970,18 Jan 2040 11:28:13.114,1718.144
111,18 Jan 2040 12:16:07.388,18 Jan 2040 14:52:27.100,9379.712
112,18 Jan 2040 18:38:59.443,18 Jan 2040 19:07:40.100,1720.657
113,18 Jan 2040 19:55:29.698,18 Jan 2040 22:31:51.718,9382.020
114,19 Jan 2040 02:18:23.915,19 Jan 2040 02:47:07.082,1723.167
115,19 Jan 2040 03:34:51.753,19 Jan 2040 06:11:16.342,9384.589
116,19 Jan 2040 09:57:48.393,19 Jan 2040 10:26:33.882,1725.490
117,19 Jan 2040 11:14:13.707,19 Jan 2040 13:50:40.958,9387.250
118,19 Jan 2040 17:37:12.861,19 Jan 2040 18:06:01.088,1728.227
119,19 Jan 2040 18:53:36.070,19 Jan 2040 21:30:05.580,9389.511
120,20 Jan 2040 01:16:37.336,20 Jan 2040 01:45:28.010,1730.674
121,20 Jan 2040 02:32:57.988,20 Jan 2040 05:09:30.202,9392.214
122,20 Jan 2040 08:56:01.806,20 Jan 2040 09:24:54.843,1733.037
123,20 Jan 2040 10:12:19.966,20 Jan 2040 12:48:54.822,9394.855
124,20 Jan 2040 16:35:26.278,20 Jan 2040 17:04:22.169,1735.892
125,20 Jan 2040 17:51:42.252,20 Jan 2040 20:28:19.441,9397.189
126,21 Jan 2040 00:14:50.750,21 Jan 2040 00:43:49.034,1738.284
127,21 Jan 2040 01:31:04.107,21 Jan 2040 04:07:44.056,9399.948
128,21 Jan 2040 07:54:15.223,21 Jan 2040 08:23:16.002,1740.779
129,21 Jan 2040 09:10:26.134,21 Jan 2040 11:47:08.679,9402.544
130,21 Jan 2040 15:33:39.700,21 Jan 2040 16:02:43.307,1743.607
131,21 Jan 2040 16:49:48.234,21 Jan 2040 19:26:33.293,9405.059
132,21 Jan 2040 23:13:04.168,21 Jan 2040 23:42:10.205,1746.038
133,22 Jan 2040 00:29:10.145,22 Jan 2040 03:05:57.912,9407.768
134,22 Jan 2040 06:52:28.643,22 Jan 2040 07:21:37.316,1748.673
135,22 Jan 2040 08:08:32.170,22 Jan 2040 10:45:22.535,9410.365
136,22 Jan 2040 14:31:53.113,22 Jan 2040 15:01:04.483,1751.370
137,22 Jan 2040 15:47:54.069,22 Jan 2040 18:24:47.153,9413.084
138,22 Jan 2040 22:11:17.585,22 Jan 2040 22:40:31.539,1753.953
139,22 Jan 2040 23:27:16.112,23 Jan 2040 02:04:11.771,9415.659
140,23 Jan 2040 05:50:42.058,23 Jan 2040 06:19:58.717,1756.659
141,23 Jan 2040 07:06:38.055,23 Jan 2040 09:43:36.385,9418.330
142,23 Jan 2040 13:30:06.531,23 Jan 2040 13:59:25.745,1759.214
143,23 Jan 2040 14:45:59.831,23 Jan 2040 17:23:01.007,9421.176
144,23 Jan 2040 21:09:31.009,23 Jan 2040 21:38:53.027,1762.018
145,23 Jan 2040 22:25:21.987,24 Jan 2040 01:02:25.621,9423.634
146,24 Jan 2040 04:48:55.478,24 Jan 2040 05:18:20.181,1764.703
147,24 Jan 2040 06:04:43.787,24 Jan 2040 08:41:50.240,9426.453
148,24 Jan 2040 12:28:19.954,24 Jan 2040 12:57:47.167,1767.213
149,24 Jan 2040 13:44:05.549,24 Jan 2040 16:21:14.862,9429.313
150,24 Jan 2040 20:07:44.425,24 Jan 2040 20:37:14.639,1770.213
151,24 Jan 2040 21:23:27.703,25 Jan 2040 00:00:39.480,9431.777
152,25 Jan 2040 03:47:08.899,25 Jan 2040 04:16:41.714,1772.815
153,25 Jan 2040 05:02:49.390,25 Jan 2040 07:40:04.098,9434.708
154,25 Jan 2040 11:26:33.374,25 Jan 2040 11:56:08.793,1775.420
155,25 Jan 2040 12:42:11.197,25 Jan 2040 15:19:28.716,9437.518
156,25 Jan 2040 19:05:57.852,25 Jan 2040 19:35:36.324,1778.472
157,25 Jan 2040 20:21:33.219,25 Jan 2040 22:58:53.335,9440.116
158,26 Jan 2040 02:45:22.328,26 Jan 2040 03:15:03.376,1781.048
159,26 Jan 2040 04:00:54.893,26 Jan 2040 06:38:17.948,9443.056
160,26 Jan 2040 10:24:46.798,26 Jan 2040 10:54:30.614,1783.816
161,26 Jan 2040 11:40:16.740,26 Jan 2040 14:17:42.572,9445.832
162,26 Jan 2040 18:04:11.278,26 Jan 2040 18:33:58.051,1786.773
163,26 Jan 2040 19:19:38.556,26 Jan 2040 21:57:07.190,9448.634
164,27 Jan 2040 01:43:35.750,27 Jan 2040 02:13:25.204,1789.454
165,27 Jan 2040 02:59:00.324,27 Jan 2040 05:36:31.809,9451.485
166,27 Jan 2040 09:23:00.226,27 Jan 2040 09:52:52.557,1792.331
167,27 Jan 2040 10:38:22.133,27 Jan 2040 13:15:56.428,9454.296
168,27 Jan 2040 17:02:24.703,27 Jan 2040 17:32:19.843,1795.140
169,27 Jan 2040 18:17:43.776,27 Jan 2040 20:55:21.046,9457.270
170,28 Jan 2040 00:41:49.181,28 Jan 2040 01:11:47.202,1798.021
171,28 Jan 2040 01:57:05.687,28 Jan 2040 04:34:45.667,9459.981
172,28 Jan 2040 08:21:13.663,28 Jan 2040 08:51:14.568,1800.905
173,28 Jan 2040 09:36:27.377,28 Jan 2040 12:14:10.282,9462.905
174,28 Jan 2040 16:00:38.136,28 Jan 2040 16:30:41.757,1803.620
175,28 Jan 2040 17:15:48.946,28 Jan 2040 19:53:34.907,9465.961
176,28 Jan 2040 23:40:02.619,29 Jan 2040 00:10:09.339,1806.720
177,29 Jan 2040 00:55:10.925,29 Jan 2040 03:32:59.523,9468.597
178,29 Jan 2040 07:19:27.094,29 Jan 2040 07:49:36.643,1809.549
179,29 Jan 2040 08:34:32.481,29 Jan 2040 11:12:24.148,9471.667
180,29 Jan 2040 14:58:51.575,29 Jan 2040 15:29:03.863,1812.288
181,29 Jan 2040 16:13:54.067,29 Jan 2040 18:51:48.769,9474.702
182,29 Jan 2040 22:38:16.054,29 Jan 2040 23:08:31.578,1815.525
183,29 Jan 2040 23:53:15.988,30 Jan 2040 02:31:13.390,9477.401
184,30 Jan 2040 06:17:40.539,30 Jan 2040 06:47:58.828,1818.289
185,30 Jan 2040 07:32:37.465,30 Jan 2040 10:10:38.011,9480.546
186,30 Jan 2040 13:57:05.021,30 Jan 2040 14:27:26.176,1821.156
187,30 Jan 2040 15:11:59.102,30 Jan 2040 17:50:02.629,9483.527
188,30 Jan 2040 21:36:29.498,30 Jan 2040 22:06:53.879,1824.381
189,30 Jan 2040 22:51:20.849,31 Jan 2040 00:00:00.000,4119.151

